[
  {
    "name": "Home Center Ferreira Costa João Pessoa",
    "address": "Rua Edgar Sáles Miranda Henriques, 345",
    "bairro": "Cabedelo",
    "city": "João Pessoa",
    "uf": "PB",
    "cep": "58310-000",
    "location": {
      "type": "Point",
      "coordinates": [-34.8305, -7.16219]
    }
  },
  {
    "name": "Home Center Ferreira Costa Tamarineira",
    "address": "Rua Cônego Barata, 275",
    "bairro": "Tamarineira",
    "city": "Recife",
    "uf": "PE",
    "cep": "52051-020",
    "location": {
      "type": "Point",
      "coordinates": [-34.90284, -8.03107]
    }
  },
  {
    "name": "Home Center Ferreira Costa Imbiribeira",
    "address": "Avenida Mal. Mascarenhas de Morais, 2967",
    "bairro": "Imbiribeira",
    "city": "Recife",
    "uf": "PE",
    "cep": "51150-905",
    "location": {
      "type": "Point",
      "coordinates": [-34.91093, -8.11199]
    }
  },
  {
    "name": "Home Center Ferreira Costa Ribeirão",
    "address": "Rodovia BR-101, Km 81, s/n",
    "bairro": "Canavial",
    "city": "Ribeirão",
    "uf": "PE",
    "cep": "55520-000",
    "location": {
      "type": "Point",
      "coordinates": [-35.97906, -8.26561]
    }
  },
  {
    "name": "Home Center Ferreira Costa Aracaju",
    "address": "Av. Melício Machado, 240",
    "bairro": "Aeroporto",
    "city": "Aracaju",
    "uf": "SE",
    "cep": "49038-443",
    "location": {
      "type": "Point",
      "coordinates": [-37.06112, -10.98983]
    }
  },
  {
    "name": "Home Center Ferreira Costa Brejo Grande",
    "address": "R. Jackson de Figueiredo, 67",
    "bairro": "Centro",
    "city": "Brejo Grande",
    "uf": "SE",
    "cep": "49995-000",
    "location": {
      "type": "Point",
      "coordinates": [-36.4627, -10.4232]
    }
  },
  {
    "name": "Home Center Ferreira Costa Propriá",
    "address": "Rua Dom Juvencio de Brito, 1244",
    "bairro": "Propriá",
    "city": "Propriá",
    "uf": "SE",
    "cep": "49900-000",
    "location": {
      "type": "Point",
      "coordinates": [-36.83885, -10.2182]
    }
  }
]
